iata,lat,lon,city,country
IGM,35.2595,-113.938,Kingman,United States
BKX,44.3047,-96.8169,Brookings,United States
OLF,48.0945,-105.575,Wolf Point,United States
LWT,47.0493,-109.467,Lewistown,United States
CBE,39.6153,-78.7610,Cumberland,United States
FKL,41.3779,-79.8604,Franklin,United States
